hotel_df,City,Country,Max Temp,Lat,Lng,Hotel Name
5,Umm Lajj,SA,82.94000000000003,25.0213,37.2685,Moon light Furnished Units
10,Rikitea,PF,77.03599999999997,-23.1203,-134.9692,People ThankYou
12,Puerto Ayora,EC,77.234,-0.7393,-90.3518,Finch Bay Galapagos Hotel
17,Vaini,TO,81.03200000000001,-21.2,-175.2,Keleti Beach Resort
24,Acarau,BR,79.808,-2.8856,-40.12,castelo pizzaria
28,Humberto De Campos,BR,76.65800000000002,-2.5983,-43.4611,Pousada do Cabeça
37,Giddalur,IN,80.97799999999997,15.35,78.9167,Shivaji Lodge
45,Arraial Do Cabo,BR,78.92599999999999,-22.9661,-42.0278,Pousada Porto Praia
48,Celestun,MX,80.97799999999997,20.8667,-90.4,Posada Lilia
54,Victoria,HK,84.45199999999997,22.2855,114.1577,Mini Hotel Central
55,Kapaa,US,82.65199999999999,22.0752,-159.319,Sheraton Kauai Coconut Beach Resort
56,Avarua,CK,84.52400000000002,-21.2078,-159.775,Paradise Inn
57,Faanui,PF,81.33800000000005,-16.4833,-151.75,Bora-Bora Pearl Beach Resort & Spa
60,Lethem,GY,84.326,3.3803,-59.7968,Savannah Inn
64,Vila Velha,BR,79.21400000000003,-20.3297,-40.2925,Hotel Vitória Palace
66,Yanam,IN,77.59399999999997,16.7333,82.2167,The Regency Hotel
68,Tevaitoa,PF,81.21199999999996,-16.7833,-151.5,Hôtel Raiatea Lodge
69,Salina,US,81.28399999999999,38.8403,-97.6114,"Holiday Inn Express & Suites Salina, an IHG Hotel"
72,Mabaruma,GY,75.59600000000006,8.2,-59.7833,Monty Brooms Guest House
73,Jiwani,PK,84.38000000000005,25.05,61.7417,Al Mumtaz Transport Jiwani
74,Laguna,US,76.69399999999997,38.421,-121.4238,"Holiday Inn Express & Suites Elk Grove Central - Hwy 99, an IHG Hotel"
79,Georgetown,MY,84.21799999999999,5.4112,100.3354,Cititel Penang
80,Chimore,BO,78.40399999999995,-16.9833,-65.1333,Bichito
81,Atuona,PF,78.92599999999999,-9.8,-139.0333,Villa Enata
84,Kokopo,PG,81.33800000000005,-4.352,152.2633,Kokopo Beach Bungalow Resort
89,Hilo,US,86.558,19.7297,-155.09,Hilo Hawaiian Hotel
96,Isangel,VU,79.23200000000003,-19.55,169.2667,Tanna Lodge
97,Santa Isabel Do Rio Negro,BR,81.62599999999999,-0.4139,-65.0192,Hotel GSA
102,Nabire,ID,76.55000000000001,-3.3667,135.4833,Hotel Nusantara I
103,El Obraje,HN,82.21999999999997,14.0,-86.4333,Mack Führer
104,San Cristobal,VE,75.65,7.7669,-72.225,Pirineos
108,Abu Dhabi,AE,84.57799999999997,24.4667,54.3667,Beach Rotana
110,Hithadhoo,MV,83.93000000000004,-0.6,73.0833,Scoop Guest House
112,Cabedelo,BR,79.73599999999996,-6.9811,-34.8339,Hotel Pigalle
114,Fomboni,KM,82.058,-12.28,43.7425,Auberge les abou
122,Bambanglipuro,ID,76.76600000000002,-7.95,110.2833,Puri Brata
129,Biak,ID,76.26199999999996,-0.9131,122.8766,Penginapan Kim
131,Eyl,SO,81.98599999999996,7.9803,49.8164,Amiin Hotel
132,Lazaro Cardenas,MX,86.50399999999996,17.9583,-102.2,HOTEL QUINTA ANTIGUA
139,Kavaratti,IN,83.84000000000003,10.5669,72.642,Hotels in Lakshadweep Islands
145,Conceicao Do Araguaia,BR,81.66199999999995,-8.2578,-49.2647,Tarumã Tropical Hotel
147,Kant,IN,85.26199999999996,27.8,79.8,Haseeb Khan shatreng
152,Salalah,OM,82.75999999999999,17.0151,54.0924,"HAMDAN PLAZA HOTEL SALALAH, an HTG Hotel"
153,Karratha,AU,78.08000000000004,-20.7377,116.8463,ibis Styles Karratha
157,Manaus,BR,81.35600000000002,-3.1019,-60.025,Manaus Hotéis Millennium
158,Jaciara,BR,75.90199999999999,-15.9653,-54.9683,Taba Hotel
159,Kudahuvadhoo,MV,84.01999999999995,2.6708,72.8944,Niyama Private Islands Maldives
164,Hambantota,LK,81.40999999999998,6.1241,81.1185,Bungalow 63
167,Quelimane,MZ,75.41600000000001,-17.8786,36.8883,Hotel Flamingo
168,Camocim,BR,79.26799999999999,-2.9022,-40.8411,Ilha Praia Hotel
169,Cockburn Town,TC,79.03399999999999,21.4612,-71.1419,Osprey Beach Hotel
170,Morant Bay,JM,78.69200000000001,17.8815,-76.4093,Whispering Bamboo Cove Resort
171,Kismayo,SO,81.35600000000002,-0.3582,42.5454,Agan-Hotel
173,Bataipora,BR,78.35,-22.2953,-53.2711,Hotel Vale do Ivinhema
174,Nanakuli,US,82.61600000000001,21.3906,-158.1547,Camp Pālehua
177,Andros Town,BS,80.834,24.7,-77.7667,Hanks place
178,Hirara,JP,79.34000000000003,24.8,125.2833,Hotel Atoll Emerald Miyakojima
179,Manaure,CO,83.75,11.7751,-72.4445,Hotel Palaaima
183,Saint George,US,88.89800000000002,37.1041,-113.5841,Best Western Plus Abbey Inn
185,Kutum,SD,81.10399999999996,14.2,24.6667,Dibbo areaمنطقة دبو
186,Port Hedland,AU,77.32400000000001,-20.3167,118.5667,The Esplanade Hotel
187,Axim,GH,80.816,4.8699,-2.2405,Axim Beach Resort And Spa
197,San Ramon De La Nueva Oran,AR,81.608,-23.1322,-64.326,Hotel Residencial Centro
199,Maceio,BR,80.31199999999995,-9.6658,-35.7353,Hotel Ponta Verde Maceió
200,Lucea,JM,82.52599999999998,18.451,-78.1736,Grand Palladium Jamaica Resort & Spa
205,Butaritari,KI,81.46400000000003,3.0707,172.7902,Isles Sunset Lodge
206,Honiara,SB,83.084,-9.4333,159.95,Heritage Park Hotel
209,Mahibadhoo,MV,84.18200000000002,3.7833,72.9667,Omadhoo Inn
211,The Valley,AI,78.09800000000003,18.217,-63.0578,CeBlue Villas & Beach Resort
213,Manggar,ID,79.91600000000001,-2.8833,108.2667,Guest Hotel
215,Doka,SD,89.79800000000003,13.5167,35.7667,Um Rakuba Refugee Camp
217,Pangai,TO,80.97799999999997,-19.8,-174.35,Ha'apai Beach Resort
218,Dwarka,IN,81.93200000000002,22.2394,68.9678,Hotel Narayan Avezika Comfort
223,Hoa Binh,VN,79.71799999999999,20.8133,105.3383,Hoa Dao Hotel
226,Port Blair,IN,83.11999999999996,11.6667,92.75,"Welcomhotel By ITC Hotels, Bay Island, Port Blair"
228,Ler,SS,82.79600000000005,8.3018,30.1418,Leer Humanitarian Hub
233,Kahului,US,80.88800000000005,20.8947,-156.47,Maui Seaside Hotel
234,Mabay,PH,80.29399999999998,6.0577,124.4666,Bautista Lodging House
235,Jaynagar-Majilpur,IN,79.37599999999999,22.1758,88.4178,Joychanditala Sarbojonin Durga Utsav Committee
236,Russell,US,79.23200000000003,32.3502,-85.1999,Macs
238,Minab,IR,79.39399999999998,27.1467,57.0801,Bam campground
240,Toucheng,TW,78.38599999999997,24.8592,121.8233,和風時尚VILLA會館
241,Paka,MY,77.25199999999998,4.6374,103.4368,RUMBIA RESORT VILLA Paka Terengganu
242,Jiazi,CN,75.86600000000001,22.8779,116.067,Hotel Jin Hao
248,Itoman,JP,77.66600000000001,26.1247,127.6694,Southern Beach Hotel & Resort Okinawa
254,Chabahar,IR,83.642,25.2919,60.643,هتل گدروشیا
267,Atar,MR,76.208,20.5169,-13.0499,Oumou Elghoura
270,Omboue,GA,76.80199999999998,-1.5746,9.2618,Hotel Olako
271,Boa Vista,BR,77.25199999999998,2.8197,-60.6733,Aipana Plaza Hotel
273,Mutis,CO,80.924,6.2262,-77.4044,Paraiso Escondido
274,Acapulco,MX,86.09000000000003,16.8634,-99.8901,HS Hotsson Smart Acapulco
275,Bathsheba,BB,77.88200000000002,13.2167,-59.5167,Atlantis Hotel
282,Muncar,ID,77.0,-8.4333,114.3333,Zaky Homestay
283,Touros,BR,79.37599999999999,-5.1989,-35.4608,INN NEW HORIZON
284,Sao Joao Da Barra,BR,76.58599999999997,-21.6403,-41.0511,Pousada Porto De Canoas
287,Lorengau,PG,84.14600000000004,-2.0226,147.2712,Lorengau Harbourside Hotel
291,Itanhaem,BR,75.00199999999998,-24.1831,-46.7889,Prainha Residência Artística
293,Maragogi,BR,78.20600000000003,-9.0122,-35.2225,Salinas do Maragogi All Inclusive Resort
295,Moindou,NC,75.59600000000006,-21.6924,165.677,Equi-lodge de Moindou
298,Pemangkat,ID,78.09800000000003,1.1667,108.9667,Ramah Kost KITA
303,Daru,PG,81.78800000000004,-9.0763,143.2092,Daru Lodge
307,Gouyave,GD,78.04399999999998,12.1646,-61.7296,Rumboat Retreat
309,Namatanai,PG,84.93800000000005,-3.6667,152.4333,Seagulls Inn Namatani
311,Grand-Santi,GF,75.81199999999995,4.25,-54.3833,Hotel La Villa Couacou
330,Sweetwater,US,82.66999999999996,25.7634,-80.3731,Courtyard by Marriott Miami at Dolphin Mall
332,Seminole,US,88.60999999999999,28.7086,-81.2081,Ono Hot Dog Cart and Catering
334,Bonthe,SL,80.708,7.5264,-12.505,Bonthe Holiday Village
337,Porto De Moz,BR,77.0,-1.7483,-52.2383,Dormitório labelle
339,Liberty,US,77.37799999999996,31.8335,-81.5004,Sasser’s Mobile Home Park
340,Chandbali,IN,77.84600000000006,20.7833,86.7667,Sabitri Bhavan
342,Porac,PH,78.476,15.1,120.5,Poracay Resort
345,Roxana,CR,79.30399999999995,10.2753,-83.7513,3BYES1
346,Bandarbeyla,SO,81.82400000000001,9.4942,50.8122,JABIR HOTEL
348,Itarema,BR,79.44800000000004,-2.9248,-39.9167,"Sea Lounge! Bar, Club & Restaurant"
355,Bhuj,IN,78.74600000000005,23.2667,69.6667,Regenta Resort Bhuj
358,La Palma,US,82.02200000000005,33.8464,-118.0467,La Quinta Inn & Suites by Wyndham Buena Park
360,Soyo,AO,78.22400000000002,-6.1349,12.3689,Hotel Mpampa
362,Lascahobas,HT,76.51400000000004,18.8294,-71.9364,oasisinn lascahobas
364,San Patricio,US,84.434,28.017,-97.5169,"Motel 6 Sinton, TX"
371,Nam Som,TH,81.71600000000001,17.7704,102.1895,โรงแรมวุฒิโชค น้ำโสม ที่พักไกล้วัดป่าภูก้อน ราคา 500฿
373,Sorong,ID,78.674,-0.8833,131.25,Waigo Splash Hotel
376,Petatlan,MX,87.87200000000004,17.5167,-101.2667,Hotel California Petatlán
377,Bosaso,SO,82.65199999999999,11.2842,49.1816,Red Sea Hotel
379,Nakhon Phanom,TH,80.18599999999998,17.3333,104.4167,ป่ายางรีสอร์ท
385,Guantanamo,CU,82.23800000000006,20.1444,-75.2092,Hotel Guantánamo
386,Eirunepe,BR,78.13399999999999,-6.6603,-69.8736,Atrás de você
390,Champerico,GT,83.20999999999998,14.3,-91.9167,"Hotel y restaurante ""El Diamante"""
391,Galle,LK,81.17599999999999,6.0367,80.217,Amangalla
392,Mandiana,GN,86.108,10.6333,-8.6833,Motels rouzo
394,Carlsbad,US,77.99000000000002,33.1581,-117.3506,Carlsbad Inn Beach Resort
402,Nauta,PE,76.04600000000005,-4.5061,-73.5757,Amazon Exploring Expedition - Eretzen Tá Lodge
403,Lodwar,KE,83.15600000000003,3.1191,35.5973,Solmar Gracious Hotel
405,Hue,VN,79.17799999999997,16.4667,107.6,Saigon Morin Hotel
410,Domoni,KM,79.19600000000005,-12.2569,44.5319,Al Djadid
415,Vao,NC,75.72200000000004,-22.6667,167.4833,Hotel Kou-Bugny
420,Tuy Hoa,VN,77.684,13.0833,109.3,CenDeluxe Hotel Tuy Hoa
424,Jesus De Otoro,HN,85.92799999999997,14.4833,-87.9833,Hotel Tosta
429,Ahuimanu,US,82.38200000000002,21.4447,-157.8378,Paradise Bay Resort
432,Nuevitas,CU,77.48599999999996,21.5453,-77.2644,Hotel Caonaba
433,Puerto Cabezas,NI,84.434,14.0351,-83.3888,Cabaña Caribe
443,Bom Jesus,BR,78.27799999999996,-9.0744,-44.3586,Hotel Brasão & Floricultura Bella Flor
445,Hobyo,SO,83.46199999999996,5.3505,48.5268,Iftin hotel hobyo
446,Garowe,SO,77.03599999999997,8.4054,48.4845,Curubo Hotel
447,Buala,SB,85.26199999999996,-8.145,159.5921,Maringe Lagoon Lodge
448,Bloomingdale,US,87.33200000000002,27.8936,-82.2404,Travel Club for Free
449,Poso,ID,76.92799999999997,-1.3959,120.7524,Hotel 77 Poso
450,San Carlos,VE,77.50399999999996,9.6612,-68.5827,Hotel Paternopoli
452,Punto Fijo,VE,80.36600000000001,11.6956,-70.1996,Santa Fe Inn Hotel
456,Waingapu,ID,76.36999999999996,-9.6567,120.2641,Pondok Wisata Elim
458,Avanigadda,IN,81.59000000000003,16.0215,80.9181,AP Camping
460,Awbari,LY,79.73599999999996,26.5921,12.7805,فندق أوباري
461,Luanda,AO,75.46999999999997,-8.8368,13.2343,EPIC SANA Luanda
462,Tamandare,BR,78.24199999999999,-8.7597,-35.1047,Pousada 100 Passos
467,Alofi,NU,80.76199999999996,-19.0595,-169.9187,Taloa Heights
469,Santa Maria,BR,76.56799999999998,-29.6842,-53.8069,Hotel Morotin
471,Pilar,BR,78.99800000000002,-9.5972,-35.9567,Pousada e churrascaria Manguaba
475,Rairangpur,IN,80.63599999999997,22.2676,86.1751,Motu Hotel
481,Muisne,EC,78.674,0.6,-80.0333,Quinta Samay
484,Ternate,ID,81.51799999999999,0.8,127.4,Sahid Bela Ternate Hotel
485,Sao Jose Da Coroa Grande,BR,78.65600000000003,-8.8978,-35.1478,Crôa Mares Hotel
486,Kavieng,PG,85.56799999999998,-2.5744,150.7967,Nusa Island Retreat
489,Campo Maior,BR,77.28800000000004,-4.8278,-42.1686,Elite Hotel
493,Vaitape,PF,81.31999999999996,-16.5167,-151.75,Conrad Bora Bora Nui
495,Santa Cruz Do Sul,BR,76.04600000000005,-29.7175,-52.4258,Hotel Antonio's
500,Port Moresby,PG,82.09399999999997,-9.4431,147.1797,Lamana Hotel (Port Moresby)
504,Enid,US,79.28599999999997,36.3956,-97.8784,Ramada by Wyndham Enid
506,Mattru,SL,77.80999999999997,7.6244,-11.8332,"Mondkor Town, Bagbo Chiefdom, Bo District"
507,Cayenne,GF,82.36400000000003,4.9333,-52.3333,Hôtel Le Dronmi
510,Iracoubo,GF,79.23200000000003,5.4802,-53.2011,Le Gîte d’Iracoubo
515,Saint Andrews,US,76.85600000000002,34.0454,-81.1293,Baymont by Wyndham Columbia Northwest
517,Lagunas,PE,76.81999999999996,-5.2269,-75.6753,Hospedaje Eco
520,Truth Or Consequences,US,88.43000000000004,33.1284,-107.2528,Charles Motel
525,Tiarei,PF,84.48800000000006,-17.5333,-149.3333,Le Rocher de Tahiti
528,Alvaraes,BR,86.14399999999998,-3.2208,-64.8042,Av. Castelo Branco. Ginásio Ermelino vieira.
530,Noumea,NC,77.26999999999995,-22.2763,166.4572,Hôtel Le Lagon
539,Tautira,PF,80.34800000000003,-17.7333,-149.15,Pension Oaoa
543,Bachaquero,VE,80.74399999999997,9.9694,-71.1494,casa de los dinosaurios
545,Houma,US,80.29399999999998,29.5958,-90.7195,Courtyard by Marriott Houma
547,Trinidad,BO,88.05199999999998,-14.8333,-64.9,Hotel Piesta
548,Kencong,ID,76.02799999999996,-8.2833,113.3667,GUBUK SUGIANTO
553,Ugoofaaru,MV,84.308,5.6667,73.0,Ungoofaaru Inn
555,Mexico,PH,80.58200000000002,15.0646,120.7198,stone place
564,Alta Floresta,BR,77.18000000000004,-9.8756,-56.0861,Floresta Amazonica Hotel
567,Jieshi,CN,76.1,22.8134,115.8257,Yuehai Hotel
572,Kloulklubed,PW,75.97400000000002,7.0419,134.2556,Storyboard Beach Resort
584,Pundaguitan,PH,80.00600000000003,6.3711,126.1689,Leonardo Family Beach House 1
